µb\‡.≤‚	.7
Y‰˚ˇÍ	=Ì«ˇŒâ√Ë¯$H4

√3'ÑÓDÍ≥&;œgµb‡.≤ﬂd<£3E˝µb"‡.≤¶
P>µb;(‡.≤0ü$GNRMC,110946.00,A,3929.16450,N,00022.04892,W,0.025,,060318,,,D*79

$GNVTG,,T,,M,0.025,N,0.046,K,D*3D

$GNGGA,110946.00,3929.16450,N,00022.04892,W,2,10,0.97,75.0,M,50.1,M,1.0,0000*4E

$GNGSA,A,3,05,13,20,24,,,,,,,,,1.79,0.97,1.50*1A

$GNGSA,A,3,69,80,79,70,73,71,,,,,,,1.79,0.97,1.50*15

$GPGSV,3,1,10,05,43,187,50,13,73,002,18,15,48,309,,17,05,122,33*7E

$GPGSV,3,2,10,18,07,322,15,20,47,282,47,21,05,299,,24,21,255,40*7D

$GPGSV,3,3,10,28,47,064,,30,22,058,*7D

$GLGSV,2,1,07,69,40,146,45,70,77,326,29,71,24,326,17,73,35,229,48*65

$GLGSV,2,2,07,79,20,036,22,80,79,333,29,88,01,025,*53

$GNGLL,3929.16450,N,00022.04892,W,110946.00,A,D*6B

µb
	<@Ù@Ô∑mˆÑøÎ

ˇˇˇD65Ô^¿∑ˆjµb25wµb2?Å µb2Œ>µb2Ì.{µb\»2≤‚	/7
A‰˚ˇÍ	=Ì«ˇ‘â[Êê"_z
/"√3'MÊ"≥&;MOµb»2≤ﬂd$ß3eµb"»2≤Ω
3%uµb;(»2≤À$GNRMC,110947.00,A,3929.16454,N,00022.04892,W,0.066,,060318,,,D*7B

$GNVTG,,T,,M,0.066,N,0.123,K,D*38

$GNGGA,110947.00,3929.16454,N,00022.04892,W,2,10,0.97,74.4,M,50.1,M,1.0,0000*4E

$GNGSA,A,3,05,13,20,24,,,,,,,,,1.79,0.97,1.50*1A

$GNGSA,A,3,69,80,79,70,73,71,,,,,,,1.79,0.97,1.50*15

$GPGSV,3,1,10,05,43,187,50,13,73,002,22,15,48,309,,17,05,122,33*77

$GPGSV,3,2,10,18,07,322,12,20,47,282,48,21,05,299,,24,21,256,40*76

$GPGSV,3,3,10,28,47,064,,30,22,058,*7D

$GLGSV,2,1,07,69,40,146,45,70,77,326,28,71,24,326,20,73,35,229,49*61

$GLGSV,2,2,07,79,20,036,22,80,79,333,29,88,01,025,*53

$GNGLL,3929.16454,N,00022.04892,W,110947.00,A,D*6E

µb25wµb
	<@Ù@o˜mˆÑøÎ

ˇˇˇD65Ô^¿∑∂*µb2?Å µb2Œ>µb2Ì.{µb\∞6≤‚	07
(‰˚ˇÍ	>Ì«ˇ⁄â˜„, h¿
_√3'|ÆlU≥&;P˙µb∞6≤ﬂd´3ıÕµb"∞6≤÷
) Iµb;(∞6≤˜$GNRMC,110948.00,A,3929.16457,N,00022.04891,W,0.060,,060318,,,D*72

$GNVTG,,T,,M,0.060,N,0.110,K,D*3E

$GNGGA,110948.00,3929.16457,N,00022.04891,W,2,10,0.97,73.8,M,50.1,M,1.0,0000*4A

$GNGSA,A,3,05,13,20,24,,,,,,,,,1.79,0.97,1.50*1A

$GNGSA,A,3,69,80,79,70,73,71,,,,,,,1.79,0.97,1.50*15

$GPGSV,3,1,10,05,43,187,50,13,73,002,22,15,48,309,,17,05,122,33*77

$GPGSV,3,2,10,18,07,322,13,20,47,282,48,21,05,299,,24,21,256,39*79

$GPGSV,3,3,10,28,47,064,,30,22,058,*7D

$GLGSV,2,1,07,69,40,146,45,70,77,326,26,71,24,326,22,73,35,229,48*6C

$GLGSV,2,2,07,79,20,036,23,80,79,333,29,88,01,025,*52

$GNGLL,3929.16457,N,00022.04891,W,110948.00,A,D*61

µb
	<@Ù@Ô∑mˆÑøÎ

ˇˇˇD65Ô^¿∑ˆjµb25wµb2?Å µb2Œ>µb2Ì.{µb\ò:≤‚	17
‰˚ˇÍ
@Ì«ˇÂâMinicom2.7‡:ºà%M0√3'P)‡ß&;¸·µbò:≤ﬂdÙÆ3Ã2µb"ò:≤Ì
$µb;(ò:≤Ù#$GNRMC,110949.00,A,3929.16464,N,00022.04889,W,0.093,,060318,,,D*76

$GNVTG,,T,,M,0.093,N,0.171,K,D*35

$GNGGA,110949.00,3929.16464,N,00022.04889,W,2,10,0.96,72.8,M,50.1,M,1.0,0000*42

$GNGSA,A,3,05,13,20,24,,,,,,,,,1.67,0.96,1.36*14

$GNGSA,A,3,69,80,79,70,73,71,,,,,,,1.67,0.96,1.36*1B

$GPGSV,3,1,10,05,43,187,50,13,73,002,23,15,48,309,,17,05,122,33*76

$GPGSV,3,2,10,18,07,322,13,20,47,282,47,21,05,299,,24,21,256,39*76

$GPGSV,3,3,10,28,47,064,,30,22,058,*7D

$GLGSV,2,1,07,69,40,146,45,70,77,326,24,71,24,326,23,73,35,229,47*60

$GLGSV,2,2,07,79,20,036,23,80,79,333,29,88,01,025,*52

$GNGLL,3929.16464,N,00022.04889,W,110949.00,A,D*69

µb
	<@Ù@Ô˜mˆÑøÎ

ˇˇˇD65È^¿∑0÷µb25wµb2?Å µb2Œ>µb2Ì.{µb\Ä>≤‚	27
‰˚ˇÍ
GÌ«ˇÌâ¡ﬂˆå`Ùˇˇˇ4√3'n?ß&;ÿµbÄ>≤›d‹≤3°zµb"Ä>≤Ï
˘9µb;(Ä>≤‡O$GNRMC,110950.00,A,3929.16468,N,00022.04886,W,0.050,,060318,,,A*77

$GNVTG,,T,,M,0.050,N,0.093,K,A*32

$GNGGA,110950.00,3929.16468,N,00022.04886,W,1,10,0.96,72.7,M,50.1,M,,*6A

$GNGSA,A,3,05,13,20,24,,,,,,,,,1.67,0.96,1.36*14

$GNGSA,A,3,69,80,79,70,73,71,,,,,,,1.67,0.96,1.36*1B

$GPGSV,3,1,10,05,43,187,50,13,73,002,25,15,48,309,,17,05,122,33*70

$GPGSV,3,2,10,18,07,322,13,20,47,282,47,21,05,299,,24,21,256,39*76

$GPGSV,3,3,10,28,47,064,,30,22,058,*7D

$GLGSV,2,1,07,69,40,146,45,70,77,326,20,71,24,326,25,73,35,229,48*6D

$GLGSV,2,2,07,79,20,036,24,80,79,333,28,88,01,025,*54

$GNGLL,3929.16468,N,00022.04886,W,110950.00,A,A*67

µb
	<@Ù@o˜mˆÑøÎ

ˇˇˇD65Ô^¿∑∂*µb25wµb2?Å µb2Œ>µb2Ì.{µb\hB≤‚	37ˇ„˚ˇÍ	LÌ«ˇˆâﬁﬁ`:Y√3'çÁ*?≥&;21µbhB≤›dƒ∂3y‚µb"hB≤µb;(hB≤Ã{$GNRMC,110951.00,A,3929.16474,N,00022.04882,W,0.049,,060318,,,A*77

$GNVTG,,T,,M,0.049,N,0.091,K,A*38

$GNGGA,110951.00,3929.16474,N,00022.04882,W,1,10,1.06,72.5,M,50.1,M,,*68

$GNGSA,A,3,05,13,20,24,,,,,,,,,1.79,1.06,1.45*17

$GNGSA,A,3,69,80,79,70,73,71,,,,,,,1.79,1.06,1.45*18

$GPGSV,3,1,10,05,43,187,50,13,73,002,24,15,48,309,,17,05,122,32*70

$GPGSV,3,2,10,18,07,322,15,20,47,282,48,21,05,299,,24,21,256,40*71

$GPGSV,3,3,10,28,46,064,,30,22,058,*7C

8*67

$GLGSV,2,2,07,79,20,036,21,80,79,333,28,88,01,025,*51

$GNGLL,3929.16474,N,00022.04882,W,110951.00,A,A*6F

µb25wµb
	<@Ù@Ô˜mˆÑøÎ

ˇˇˇD65Ô^¿∑6*µb2?Å µb2Œ>µb2Ì.{µb\PF≤‚	47
Í„˚ˇÍ	QÌ«ˇâ≈›˙<%'≥5√3'î<?≥&;ÉWµbPF≤›d¨∫3QJµb"PF≤
3(µb;(PF≤∏ß$GNRMC,110952.00,A,3929.16480,N,00022.04879,W,0.104,,060318,,,A*73

$GNVTG,,T,,M,0.104,N,0.192,K,A*32

$GNGGA,110952.00,3929.16480,N,00022.04879,W,1,10,1.06,72.2,M,50.1,M,,*63

$GNGSA,A,3,05,13,20,24,,,,,,,,,1.79,1.06,1.45*17

$GNGSA,A,3,69,80,79,70,73,71,,,,,,,1.79,1.06,1.45*18

$GPGSV,3,1,10,05,43,187,49,13,73,002,25,15,48,309,,17,05,122,33*78

$GPGSV,3,2,10,18,07,322,12,20,47,282,48,21,05,299,,24,21,256,40*76

$GPGSV,3,3,10,28,46,064,,30,22,058,*7C

$GLGSV,2,1,07,69,40,146,44,70,77,326,19,71,24,326,25,73,35,229,49*67

$GLGSV,2,2,07,79,20,036,20,80,79,333,27,88,01,025,*5F

$GNGLL,3929.16480,N,00022.04879,W,110952.00,A,A*63

µb
	<@Ù@Ô˜mˆÑøÎ

ˇˇˇD65Ô^¿∑79µb25wµb2?Å µb2Œ>µb2Ì.{µb\8J≤‚	57“„˚ˇÍ	XÌ«ˇâ≥‹ËË
65ÀL√3'ëM?≥&;Lèµb8J≤›dîæ3)≤µb"8J≤,&ÿµb;(8J≤§”$GNRMC,110953.00,A,3929.16487,N,00022.04875,W,0.147,,060318,,,A*7E

$GNVTG,,T,,M,0.147,N,0.272,K,A*38

$GNGGA,110953.00,3929.16487,N,00022.04875,W,1,10,1.06,71.9,M,50.1,M,,*61

$GNGSA,A,3,05,13,20,24,,,,,,,,,1.79,1.06,1.45*17

$GNGSA,A,3,69,80,79,70,73,71,,,,,,,1.79,1.06,1.45*18

$GPGSV,3,1,10,05,43,187,50,13,73,002,27,15,48,309,,17,05,122,32*73

$GPGSV,3,2,10,18,07,322,09,20,47,282,47,21,05,299,,24,21,256,41*72

$GPGSV,3,3,10,28,46,064,,30,21,058,*7F

$GLGSV,2,1,07,69,40,146,45,70,77,326,22,71,24,326,30,73,35,229,47*64

$GLGSV,2,2,07,79,20,036,20,80,79,333,26,88,01,025,*5E

$GNGLL,3929.16487,N,00022.04875,W,110953.00,A,A*69

µb
	<@Ù@Ô˜mˆÑøÎ

ˇˇˇD65Ô^¿∑8Hµb25wµb2?Å µb2Œ>µb2Ì.{µb\ N≤‚	67π„˚ˇÍ	aÌ«ˇâô€Œ
Í
#•.√3'ñK^?µ&;’¶µb N≤›d|¬3µb" N≤F=/@µb;( N≤êˇ$GNRMC,110954.00,A,3929.16495,N,00022.04870,W,0.089,,060318,,,A*7C

$GNVTG,,T,,M,0.089,N,0.164,K,A*3F

$GNGGA,110954.00,3929.16495,N,00022.04870,W,1,10,0.96,71.6,M,50.1,M,,*67

$GNGSA,A,3,05,13,20,24,,,,,,,,,1.81,0.96,1.53*1F

$GNGSA,A,3,69,80,79,70,73,71,,,,,,,1.81,0.96,1.53*10

$GPGSV,3,1,10,05,43,187,50,13,73,002,27,15,48,309,,17,05,122,32*73

$GPGSV,3,2,10,18,07,322,09,20,47,282,48,21,05,299,,24,21,256,39*72

$GPGSV,3,3,10,28,46,064,,30,21,058,*7F

$GLGSV,2,1,07,69,40,146,44,70,77,326,26,71,24,326,28,73,35,229,48*67

$GLGSV,2,2,07,79,20,036,21,80,79,333,23,88,01,025,*5A

$GNGLL,3929.16495,N,00022.04870,W,110954.00,A,A*68

µb
	<@Ù@o˜mˆÑøÎ

ˇˇˇD65
Ô^¿∑µb25wµb2?Å µb2Œ>µb2Ì.{µb\R≤‚	77°„˚ˇÍ	iÌ«ˇ#â∫⁄ÔˇÊ
x√3'ñuo?µ&;◊¶µbR≤›dd∆3ŸÇµb"R≤]?4$µb;(R≤|+$GNRMC,110955.00,A,3929.16501,N,00022.04865,W,0.060,,060318,,,A*72

$GNVTG,,T,,M,0.060,N,0.111,K,A*3A

$GNGGA,110955.00,3929.16501,N,00022.04865,W,1,10,0.96,71.4,M,50.1,M,,*6C

$GNGSA,A,3,05,13,20,24,,,,,,,,,1.81,0.96,1.53*1F

$GNGSA,A,3,69,80,79,70,73,71,,,,,,,1.81,0.96,1.53*10

µb25w$GPGSV,3,1,10,05,43,187,50,13,73,002,26,15,48,309,,17,05,122,32*72

$GPGSV,3,2,10,18,07,322,08,20,47,282,48,21,05,299,,24,21,256,40*7D

$GPGSV,3,3,10,28,46,064,,30,21,058,*7F

$GLGSV,2,1,07,69,40,146,44,70,77,326,28,71,24,326,28,73,35,229,48*69

$GLGSV,2,2,07,79,20,036,21,80,79,333,21,88,01,025,*58

$GNGLL,3929.16501,N,00022.04865,W,110955.00,A,A*61

µb
	<@Ù@Ô˜mˆÑøÎ

ˇˇˇD65Ô^¿∑79µb2?Å µb2Œ>µb2Ì.{